[{"type": "safety-rated-location", "id": "Q930500100", "self": {"type": "https://test.api.amadeus.com/v1/safety/safety-rated-locations/Q930500100", "methods": ["GET"]}, "subType": "CITY", "name": "Bangalore", "geoCode": {"latitude": 12.971599, "longitude": 77.594563}, "safetyScores": {"lgbtq": 66, "medical": 81, "overall": 66, "physicalHarm": 63, "politicalFreedom": 70, "theft": 59, "women": 57}}, {"type": "safety-rated-location", "id": "Q930402719", "self": {"type": "https://test.api.amadeus.com/v1/safety/safety-rated-locations/Q930402719", "methods": ["GET"]}, "subType": "CITY", "name": "Barcelona", "geoCode": {"latitude": 41.385064, "longitude": 2.173404}, "safetyScores": {"lgbtq": 39, "medical": 69, "overall": 45, "physicalHarm": 36, "politicalFreedom": 50, "theft": 44, "women": 34}}, {"type": "safety-rated-location", "id": "Q930400998", "self": {"type": "https://test.api.amadeus.com/v1/safety/safety-rated-locations/Q930400998", "methods": ["GET"]}, "subType": "CITY", "name": "Berlin", "geoCode": {"latitude": 52.519171, "longitude": 13.406091}, "safetyScores": {"lgbtq": 34, "medical": 46, "overall": 35, "physicalHarm": 33, "politicalFreedom": 26, "theft": 35, "women": 34}}, {"type": "safety-rated-location", "id": "Q930208243", "self": {"type": "https://test.api.amadeus.com/v1/safety/safety-rated-locations/Q930208243", "methods": ["GET"]}, "subType": "CITY", "name": "Dallas", "geoCode": {"latitude": 32.78014, "longitude": -96.800451}, "safetyScores": {"lgbtq": 51, "medical": 70, "overall": 50, "physicalHarm": 50, "politicalFreedom": 42, "theft": 50, "women": 35}}, {"type": "safety-rated-location", "id": "Q930403060", "self": {"type": "https://test.api.amadeus.com/v1/safety/safety-rated-locations/Q930403060", "methods": ["GET"]}, "subType": "CITY", "name": "London", "geoCode": {"latitude": 51.511214, "longitude": -0.119824}, "safetyScores": {"lgbtq": 39, "medical": 72, "overall": 42, "physicalHarm": 39, "politicalFreedom": 26, "theft": 36, "women": 38}}, {"type": "safety-rated-location", "id": "Q930400878", "self": {"type": "https://test.api.amadeus.com/v1/safety/safety-rated-locations/Q930400878", "methods": ["GET"]}, "subType": "CITY", "name": "Paris", "geoCode": {"latitude": 48.856614, "longitude": 2.3522219}, "safetyScores": {"lgbtq": 28, "medical": 65, "overall": 36, "physicalHarm": 27, "politicalFreedom": 34, "theft": 32, "women": 30}}, {"type": "safety-rated-location", "id": "Q930203273", "self": {"type": "https://test.api.amadeus.com/v1/safety/safety-rated-locations/Q930203273", "methods": ["GET"]}, "subType": "CITY", "name": "San Francisco", "geoCode": {"latitude": 37.77493, "longitude": -122.419416}, "safetyScores": {"lgbtq": 33, "medical": 72, "overall": 40, "physicalHarm": 32, "politicalFreedom": 23, "theft": 55, "women": 26}}]
